[{"type":"node","id":272116702,"lat":53.6017488,"lon":8.5521446,"tags":{"generator:output:electricity":"2300 kW","generator:source":"wind","height":"103","manufacturer":"Siemens","manufacturer:type":"SWT-2.3-93","operator":"Hans Huth & S\u00f6hne GmbH & Co. KG Bremerhaven","power":"generator","rotor:diameter":"93","website":"http:\/\/wp-bremerhaven.de\/"},"center":null},{"type":"node","id":617575631,"lat":53.5926148,"lon":8.5642507,"tags":{"power":"generator","generator:output:electricity":"2.5 MW","manufacturer":"PowerWind","manufacturer:type":"PowerWind 90","generator:source":"wind","operator":"wpd AG","rotor:diameter":"90"},"center":null},{"type":"node","id":617577134,"lat":53.4869805,"lon":8.5936394,"tags":{"generator:source":"wind","name":"PowerWind 56","power":"generator","generator:output:electricity":"900 kW"},"center":null},{"type":"node","id":691695235,"lat":53.5612289,"lon":8.6229669,"tags":{"generator:output:electricity":"5 MW","generator:source":"wind","height":"102","manufacturer":"Multibrid","manufacturer:type":"M5000","note":"Die Daten sollten \u00fcberpr\u00fcft werden","power":"generator","rotor:diameter":"116"},"center":null},{"type":"node","id":691695241,"lat":53.5640579,"lon":8.6223422,"tags":{"generator:output:electricity":"5 MW","generator:source":"wind","height":"130","manufacturer":"Areva \/ Multibrid","manufacturer:type":"M5000","note":"Die Daten sollten \u00fcberpr\u00fcft werden","power":"generator","rotor:diameter":"116"},"center":null},{"type":"node","id":691722623,"lat":53.5960969,"lon":8.5427094,"tags":{"power":"generator","generator:output:electricity":"5000 kW","name":"REpower 5M","generator:source":"wind"},"center":null},{"type":"node","id":1145946171,"lat":53.6043059,"lon":8.5460391,"tags":{"generator:output:electricity":"2300 kW","generator:source":"wind","height":"103","manufacturer":"Siemens","manufacturer:type":"SWT-2.3-93","operator":"Hans Huth & S\u00f6hne GmbH & Co. KG Bremerhaven","power":"generator","ref":"S-2300-692-01","rotor:diameter":"93","website":"http:\/\/wp-bremerhaven.de\/"},"center":null},{"type":"node","id":1145946189,"lat":53.6028185,"lon":8.5487431,"tags":{"generator:output:electricity":"2300 kW","generator:source":"wind","height":"103","manufacturer":"Siemens","manufacturer:type":"SWT-2.3-93","operator":"Hans Huth & S\u00f6hne GmbH & Co. KG Bremerhaven","power":"generator","ref":"S-2300-691-02","rotor:diameter":"93","website":"http:\/\/wp-bremerhaven.de\/"},"center":null},{"type":"node","id":1230878049,"lat":53.5960284,"lon":8.5598374,"tags":{"generator:output:electricity":"5000 kW","generator:source":"wind","manufacturer":"Multibrid","manufacturer:type":"M5000","power":"generator","rotor:diameter":"116","source":"gps"},"center":null},{"type":"node","id":1305577597,"lat":53.5945938,"lon":8.5488667,"tags":{"generator:output:electricity":"2000 kW","generator:source":"wind","height":"85","manufacturer":"Enercon","manufacturer:type":"E-82","power":"generator","rotor:diameter":"82"},"center":null},{"type":"node","id":1342407391,"lat":53.5896068,"lon":8.5623679,"tags":{"generator:output:electricity":"3000 kW","generator:source":"wind","manufacturer":"Enercon","manufacturer:type":"E-82","power":"generator","rotor:diameter":"82"},"center":null},{"type":"node","id":1342407392,"lat":53.5973585,"lon":8.5559021,"tags":{"generator:output:electricity":"5000 kW","generator:source":"wind","manufacturer":"Multibrid","manufacturer:type":"M5000","power":"generator","rotor:diameter":"116"},"center":null},{"type":"node","id":1342407393,"lat":53.5855422,"lon":8.5596529,"tags":{"generator:output":"3300 kW","generator:output:electricity":"3300 kW","generator:source":"wind","manufacturer":"REpower","manufacturer:type":"3.3M","name":"REpower 3.3M","power":"generator","rotor:diameter":"104"},"center":null},{"type":"node","id":1342407395,"lat":53.5997152,"lon":8.5439279,"tags":{"manufacturer:type":"3.3M","generator:output:electricity":"3300 kW","generator:source":"wind","manufacturer":"REpower","power":"generator","rotor:diameter":"104"},"center":null},{"type":"node","id":1470801392,"lat":53.1435204,"lon":8.6798761,"tags":{"power":"generator","generator:source":"wind","generator:output:electricity":"2500 kW","name":"PowerWind 90"},"center":null},{"type":"node","id":1476500908,"lat":53.5538527,"lon":8.6317829,"tags":{"power":"generator","generator:output:electricity":"5 MW","manufacturer":"REpower","generator:source":"wind","note":"Windkraftanlage REpower"},"center":null},{"type":"node","id":1886323643,"lat":53.148797,"lon":8.6775774,"tags":{"source":"survey","ref":"E-822255","power":"generator","name":"Enercon E-82","generator:output:electricity":"2300 kW","generator:source":"wind"},"center":null},{"type":"node","id":1886323650,"lat":53.1497879,"lon":8.672741,"tags":{"source":"survey","ref":"E-822255","power":"generator","name":"Enercon E-82","generator:output:electricity":"2300 kW","generator:source":"wind"},"center":null},{"type":"node","id":2097192036,"lat":53.545624,"lon":8.6226168,"tags":{"power":"generator","FIXME":"resurvey","generator:output:electricity":"3 MW","generator:source":"wind","manufacturer":"REpower","note":"Windkraftanlage REpower"},"center":null},{"type":"node","id":2432566699,"lat":53.5565817,"lon":8.6245424,"tags":{"generator:output:electricity":"5 MW","generator:source":"wind","manufacturer":"Multibrid","manufacturer:type":"M5000","note":"Die Daten sollten \u00fcberpr\u00fcft werden","power":"generator","rotor:diameter":"116"},"center":null},{"type":"node","id":2509552694,"lat":53.5508138,"lon":8.6228144,"tags":{"power":"generator","generator:output:electricity":"5 MW","generator:source":"wind","manufacturer":"Areva \/ Multibrid","note":"Windkraftanlage AREVA"},"center":null},{"type":"way","id":42049929,"lat":null,"lon":null,"tags":{"power":"generator","generator:output:electricity":"268 MW","generator:source":"coal","wikipedia":"de:Kraftwerk Bremen-Hastedt","website":"http:\/\/www.swb-gruppe.de\/ueber-swb\/unternehmen\/unsere-kraftwerke.php","operator":"swb","name":"Kraftwerk Hastedt","addr:street":"Hastedter Osterdeich","addr:city":"Bremen","addr:country":"DE","addr:housenumber":"255","addr:postcode":"28207"},"center":{"lat":53.0596855,"lon":8.8733841}},{"type":"way","id":48868828,"lat":null,"lon":null,"tags":{"wikipedia":"de:Kraftwerk Bremen-Hafen","power":"plant","operator":"swb AG","plant:output:electricity":"416 MW","plant:source":"coal","name":"Kraftwerk Hafen"},"center":{"lat":53.1237655,"lon":8.7273743}},{"type":"way","id":177480120,"lat":null,"lon":null,"tags":{"generator:method":"ac_converter","generator:output:electricity":"100 MW","generator:source":"electricity","voltage":"110000","start_date":"1996-06","power":"generator","operator":"Stadtwerke Bremen","operator:2":"DB_Energie","description":"Ein statischer Umrichter mit 100 MW","frequency":"50;16.7","manufacturer":"ABB","name":"Umrichter I"},"center":{"lat":53.1304813,"lon":8.6803501}},{"type":"way","id":375747505,"lat":null,"lon":null,"tags":{"generator:method":"ac_converter","generator:output:electricity":"40 MW","generator:source":"electricity","voltage":"110000","start_date":"2014","power":"generator","operator":"Stadtwerke Bremen","operator:2":"DB_Energie","description":"Ein statischer Umrichter mit 40 MW","frequency":"50;16.7","manufacturer":"ABB","name":"Umrichter III"},"center":{"lat":53.130261,"lon":8.6811277}},{"type":"way","id":375747506,"lat":null,"lon":null,"tags":{"voltage":"110000","frequency":"50;16.7","generator:method":"ac_converter","generator:output:electricity":"80 MW","generator:source":"electricity","start_date":"2013","operator":"Stadtwerke Bremen","power":"generator","name":"Umrichter II","operator:2":"DB_Energie","description":"Ein statischer Umrichter mit 80 MW","manufacturer":"ABB"},"center":{"lat":53.1304193,"lon":8.6812239}}]